{
    "type": "FeatureCollection",
    "features": [
        {
            "name": "Düsseldorf",
            "bundesland": "Nordrhein-Westfalen",
            "lat": 51.25,
            "lon": 6.80
        },
        {
            "name": "Wiesbaden",
            "bundesland": "Hessen",
            "lat": 50.5807611,
            "lon": 9.0272493
        },
        {
            "name": "Mainz",
            "bundesland": "Rheinland-Pfalz",
            "lat": 49.854075,
            "lon": 7.443921
        },
        {
            "name": "Saarbrücken",
            "bundesland": "Saarland",
            "lat": 49.30,
            "lon": 7.05
        },
        {
            "name": "Stuttgart",
            "bundesland": "Baden-Württemberg",
            "lat": 48.75,
            "lon": 9.20
        },
        {
            "name": "München",
            "bundesland": "Bayern",
            "lat": 48.15,
            "lon": 11.60
        },
        {
            "name": "Erfurt",
            "bundesland": "Thüringen",
            "lat": 51.00,
            "lon": 11.05
        },
        {
            "name": "Dresden",
            "bundesland": "Sachsen",
            "lat": 51.05,
            "lon": 13.75
        },
        {
            "name": "Magdeburg",
            "bundesland": "Sachsen-Anhalt",
            "lat": 52.10,
            "lon": 11.60
        },
        {
            "name": "Potsdam",
            "bundesland": "Brandenburg",
            "lat": 52.053528,
            "lon": 13.834833
        },
        {
            "name": "Schwerin",
            "bundesland": "Mecklenburg-Vorpommern",
            "lat": 53.60,
            "lon": 11.30
        },
        {
            "name": "Kiel",
            "bundesland": "Schleswig-Holstein",
            "lat": 54.30,
            "lon": 10.10
        },
        {
            "name": "Hannover",
            "bundesland": "Niedersachsen",
            "lat": 52.40,
            "lon": 9.75
        },
        {
            "name": "Bremen",
            "bundesland": "Bremen",
            "lat": 53.05,
            "lon": 8.75
        },
        {
            "name": "Hamburg",
            "bundesland": "Hamburg",
            "lat": 53.55,
            "lon": 10.05
        },
        {
            "name": "Berlin",
            "bundesland": "Berlin",
            "lat": 52.55,
            "lon": 13.45
        }
    ]
}